,city,lat,temp_max,lon,humidity,clouds,wind,country,dt
0,provideniya,64.3833,5.36,-173.3,94,100,4.55,RU,1629380244
1,abu zabad,12.35,32.48,29.25,46,76,5.78,SD,1629380490
2,faya,18.3851,24.29,42.4509,41,79,4.68,SA,1629380610
3,jamestown,42.097,22.94,-79.2353,88,90,3.11,US,1629380270
4,san jeronimo,-11.9472,10.94,-75.2829,58,10,0.62,PE,1629380611
5,kruisfontein,-34.0033,13.27,24.7314,57,100,3.86,ZA,1629380238
6,ahipara,-35.1667,10.85,173.1667,77,33,3.52,NZ,1629380505
7,castro,-24.7911,25.36,-50.0119,39,0,4.44,BR,1629380281
8,nikolskoye,59.7035,17.94,30.7861,67,93,5.78,RU,1629380274
9,atuona,-9.8,24.91,-139.0333,75,16,7.22,PF,1629380264
10,albany,42.6001,24.79,-73.9662,95,100,3.15,US,1629379964
11,atar,20.5169,39.67,-13.0499,24,64,7.12,MR,1629380507
12,ushuaia,-54.8,-0.19,-68.3,86,75,12.35,AR,1629380254
13,severo-kurilsk,50.6789,12.46,156.125,87,91,2.65,RU,1629380354
14,mahebourg,-20.4081,24.16,57.7,53,20,5.14,MU,1629380431
15,asfi,32.2994,24.07,-9.2372,66,8,8.69,MA,1629380275
16,mar del plata,-38.0023,11.01,-57.5575,100,90,5.66,AR,1629380101
17,aurangabad,19.8833,22.05,75.3333,100,90,1.54,IN,1629380613
18,ribeira grande,38.5167,24.22,-28.7,88,40,3.6,PT,1629380253
19,inuvik,68.3499,6.02,-133.7218,96,75,2.57,CA,1629380613
20,ketchikan,55.3422,13.79,-131.6461,98,99,0.74,US,1629380309
21,mataura,-46.1927,6.38,168.8643,96,56,2.39,NZ,1629380243
22,jaisalmer,26.9147,37.4,70.9181,23,0,4.52,IN,1629380448
23,cidreira,-30.1811,25.82,-50.2056,55,0,3.84,BR,1629380292
24,cumana,10.4635,27.05,-64.1775,68,69,1.14,VE,1629380614
25,karpinsk,59.7654,26.06,60.0085,55,54,1.16,RU,1629380615
26,ust-maya,60.4167,15.94,134.5333,79,100,1.72,RU,1629380615
27,isangel,-19.55,21.43,169.2667,82,92,4.84,VU,1629380254
28,san cristobal,7.7669,23.1,-72.225,69,100,2.14,VE,1629380251
29,kadoma,34.7333,23.97,135.5833,94,100,1.81,JP,1629380616
30,galesong,-5.3166,27.01,119.3661,76,100,2.89,ID,1629380616
31,qaanaaq,77.484,5.1,-69.3632,83,25,0.47,GL,1629380241
32,tuktoyaktuk,69.4541,6.0,-133.0374,87,90,5.14,CA,1629380333
33,kodiak,57.79,11.25,-152.4072,87,92,1.86,US,1629380105
34,bluff,-46.6,6.56,168.3333,72,77,9.29,NZ,1629380235
35,hilo,19.7297,23.85,-155.09,83,90,0.0,US,1629380007
36,georgetown,5.4112,25.97,100.3354,90,40,3.6,MY,1629380279
37,cape town,-33.9258,18.39,18.4232,68,20,1.79,ZA,1629379968
38,carnarvon,-24.8667,18.04,113.6333,73,0,2.57,AU,1629380257
39,port alfred,-33.5906,14.27,26.891,73,100,6.67,ZA,1629380312
40,san patricio,28.017,30.49,-97.5169,69,11,6.52,US,1629380318
41,thompson,55.7435,10.09,-97.8558,93,75,3.09,CA,1629380237
42,yellowknife,62.456,13.29,-114.3525,100,90,1.54,CA,1629380332
43,narsaq,60.9167,11.12,-46.05,95,100,2.04,GL,1629380344
44,vaini,-21.2,23.09,-175.2,94,90,2.06,TO,1629380256
45,dikson,73.5069,4.14,80.5464,88,100,6.99,RU,1629380249
46,huanren,41.2647,17.37,125.3667,88,13,1.65,CN,1629380618
47,coari,-4.085,31.24,-63.1414,51,100,0.77,BR,1629380619
48,kapaa,22.0752,26.18,-159.319,78,40,2.57,US,1629380272
49,hobart,-42.8794,8.92,147.3294,87,20,3.09,AU,1629380182
50,batagay,67.6333,12.98,134.6333,85,99,1.31,RU,1629380619
51,olafsvik,64.8945,12.67,-23.7142,84,100,1.31,IS,1629380439
52,fort-shevchenko,44.5086,31.38,50.263,36,100,1.11,KZ,1629380620
53,tiznit,29.5833,33.95,-9.5,20,0,4.97,MA,1629380494
54,north bend,43.4065,15.04,-124.2243,88,90,2.57,US,1629380509
55,punta arenas,-53.15,1.01,-70.9167,80,20,4.12,CL,1629380258
56,evensk,61.95,9.56,159.2333,98,100,0.18,RU,1629380361
57,maputo,-25.9653,23.82,32.5892,73,0,7.2,MZ,1629380621
58,hobyo,5.3505,27.24,48.5268,72,55,12.88,SO,1629380252
59,saskylakh,71.9167,11.22,114.0833,86,100,3.17,RU,1629380276
60,hermanus,-34.4187,13.78,19.2345,63,16,3.88,ZA,1629380264
61,lebu,-37.6167,10.34,-73.65,87,6,5.31,CL,1629380248
62,codrington,-38.2667,12.53,141.9667,62,66,7.63,AU,1629380257
63,chokurdakh,70.6333,12.7,147.9167,57,100,1.98,RU,1629380263
64,santa maria,-29.6842,28.61,-53.8069,37,0,8.75,BR,1629380622
65,rikitea,-23.1203,19.82,-134.9692,68,88,10.81,PF,1629380247
66,vao,-22.6667,20.19,167.4833,78,99,8.53,NC,1629380281
67,chuy,-33.6971,21.65,-53.4616,63,93,7.08,UY,1629380268
68,sur,22.5667,30.9,59.5289,56,2,6.33,OM,1629380507
69,busselton,-33.65,11.72,115.3333,77,100,4.44,AU,1629380264
70,constantine,36.365,36.67,6.6147,20,0,2.57,DZ,1629380623
71,new norfolk,-42.7826,8.73,147.0587,77,61,1.19,AU,1629380276
72,khudumelapye,-23.8833,26.08,24.75,9,0,3.52,BW,1629380623
73,norman wells,65.282,9.02,-126.8329,100,90,3.6,CA,1629380504
74,pangnirtung,66.1451,9.0,-65.7125,76,90,3.6,CA,1629380352
75,honiara,-9.4333,25.19,159.95,88,11,2.33,SB,1629380624
76,kavieng,-2.5744,27.97,150.7967,71,67,2.97,PG,1629380289
77,airai,-8.9266,14.16,125.4092,91,16,1.03,TL,1629380287
78,victoria,22.2855,29.62,114.1577,83,56,2.11,HK,1629380203
79,ambon,-3.6954,26.25,128.1814,84,99,3.42,ID,1629380625
80,clyde river,70.4692,4.13,-68.5914,93,90,5.66,CA,1629380331
81,sarangarh,21.6,27.33,83.0833,82,100,2.65,IN,1629380625
82,la libertad,-2.2333,20.81,-80.9,88,90,5.14,EC,1629380336
83,keskin,39.6731,29.41,33.6136,15,0,4.22,TR,1629380626
84,cururupu,-1.8283,30.14,-44.8683,59,14,3.14,BR,1629380626
85,longyearbyen,78.2186,5.91,15.6401,75,75,3.09,SJ,1629380296
86,barrow,71.2906,2.01,-156.7887,87,90,4.63,US,1629380266
87,porto novo,6.4965,28.9,2.6036,70,100,2.24,BJ,1629380626
88,benemerito de las americas,16.5167,26.61,-90.6439,69,74,0.67,MX,1629380627
89,talnakh,69.4865,8.26,88.3972,70,99,2.6,RU,1629380293
90,east london,-33.0153,15.52,27.9116,72,40,8.23,ZA,1629380259
91,labuhan,-6.8844,25.61,112.2051,74,100,4.21,ID,1629380359
92,khani,41.9563,23.76,42.9566,79,56,2.21,GE,1629380330
93,pemangkat,1.1667,24.42,108.9667,92,100,2.73,ID,1629380294
94,beloha,-25.1667,24.19,45.05,48,5,5.27,MG,1629380426
95,kifri,34.6959,41.48,44.9661,10,0,5.26,IQ,1629380628
96,saldanha,-33.0117,17.03,17.9442,70,6,7.69,ZA,1629380459
97,wiarton,44.7407,26.89,-81.1332,100,40,1.03,CA,1629380629
98,warrington,53.3925,20.48,-2.5802,85,75,0.45,GB,1629380603
99,ilulissat,69.2167,11.01,-51.1,62,75,3.09,GL,1629380496
100,salekhard,66.53,14.59,66.6019,53,29,1.19,RU,1629380629
101,berbera,10.4396,34.6,45.0143,46,85,3.98,SO,1629380630
102,caravelas,-17.7125,25.39,-39.2481,54,84,3.63,BR,1629380464
103,chunskiy,56.0815,17.61,99.6342,55,99,0.61,RU,1629380390
104,poum,-20.2333,22.11,164.0167,81,60,5.75,NC,1629380630
105,boysun,38.2061,26.18,67.1986,20,5,2.01,UZ,1629380631
106,quarai,-30.3875,27.89,-56.4514,42,32,9.42,BR,1629380631
107,sungaipenuh,-2.0833,17.88,101.3833,98,98,0.41,ID,1629380632
108,butaritari,3.0707,28.13,172.7902,76,29,6.06,KI,1629380255
109,talcahuano,-36.7167,10.82,-73.1167,87,40,3.6,CL,1629380632
110,hasaki,35.7333,26.22,140.8333,86,7,9.58,JP,1629380296
111,sarkand,45.41,19.59,79.9186,57,58,1.68,KZ,1629380633
112,viedma,-40.8135,14.98,-62.9967,38,100,6.98,AR,1629380361
113,comarapa,-17.9,19.69,-64.4833,46,0,3.53,BO,1629380454
114,sakakah,29.9697,40.76,40.2064,9,0,0.57,SA,1629380463
115,vila franca do campo,37.7167,25.23,-25.4333,70,84,4.9,PT,1629380294
116,skjervoy,70.0311,14.0,20.9714,87,100,5.36,NO,1629380272
117,kholtoson,50.2981,9.45,103.3097,90,7,1.22,RU,1629380633
118,halifax,44.6453,20.56,-63.5724,92,90,0.89,CA,1629380430
119,toora-khem,52.4675,13.12,96.11,71,10,1.38,RU,1629380634
120,bredasdorp,-34.5322,14.62,20.0403,58,69,2.57,ZA,1629380053
121,twentynine palms,34.1356,21.92,-116.0542,48,5,1.4,US,1629380634
122,sobolevo,54.4299,22.07,31.8996,42,4,4.7,RU,1629380635
123,mandalgovi,45.7625,12.84,106.2708,56,1,3.06,MN,1629380635
124,barranca,-10.75,16.97,-77.7667,82,100,2.81,PE,1629380636
125,qazvin,36.2797,34.79,50.0049,16,20,3.09,IR,1629380636
126,tura,25.5198,22.87,90.2201,97,100,3.7,IN,1629380243
127,kaitangata,-46.2817,4.11,169.8464,91,72,3.75,NZ,1629380401
128,moose factory,51.2585,17.0,-80.6094,82,75,3.09,CA,1629380492
129,kangaatsiaq,68.3065,5.12,-53.4641,99,99,7.01,GL,1629380636
130,la ronge,55.1001,12.14,-105.2842,82,75,2.57,CA,1629380350
131,owando,-0.4819,27.7,15.8999,65,100,2.03,CG,1629380637
132,the pas,53.8251,13.01,-101.2541,76,90,2.47,CA,1629380638
133,turukhansk,65.8167,6.64,87.9833,74,87,2.84,RU,1629380484
134,miles city,46.4083,13.62,-105.8406,82,90,4.12,US,1629380638
135,uzyn,49.8262,22.31,30.4149,42,68,4.35,UA,1629380638
136,candelaria,13.9311,24.66,121.4233,91,100,0.54,PH,1629380639
137,tiksi,71.6872,7.34,128.8694,94,77,1.51,RU,1629380282
138,akyab,20.15,26.19,92.9,84,100,1.36,MM,1629380282
139,ayia trias,38.35,32.29,22.9167,50,7,3.89,GR,1629380640
140,saint-pierre,-21.3393,23.82,55.4781,72,0,5.14,RE,1629380640
141,bilibino,68.0546,6.5,166.4372,68,7,1.56,RU,1629380641
142,tasiilaq,65.6145,7.09,-37.6368,88,100,0.34,GL,1629380287
143,kimbe,-5.5502,23.9,150.1429,93,78,2.06,PG,1629380641
144,bambous virieux,-20.3428,24.14,57.7575,53,20,5.14,MU,1629380293
145,vyartsilya,62.1764,14.48,30.693,85,96,5.95,RU,1629380642
146,qostanay,53.1667,33.16,63.5833,21,0,4.0,KZ,1629380642
147,puerto baquerizo moreno,-0.9,20.68,-89.6,81,81,5.66,EC,1629380643
148,kelowna,49.8831,20.28,-119.4857,59,90,1.03,CA,1629380491
149,constitucion,-35.3333,11.52,-72.4167,84,100,3.79,CL,1629380334
150,novyy svit,47.8059,28.94,38.0211,43,73,4.99,UA,1629380644
151,opuwo,-18.0607,30.28,13.84,7,0,7.79,NA,1629380644
152,iqaluit,63.7506,9.85,-68.5145,93,90,4.63,CA,1629380315
153,kayseri,38.737,31.01,35.4968,19,20,5.66,TR,1629380644
154,cairns,-16.9167,20.97,145.7667,52,5,4.63,AU,1629380645
155,vardo,70.3705,12.11,31.1107,98,95,4.69,NO,1629380645
156,praia da vitoria,38.7333,28.14,-27.0667,69,40,4.7,PT,1629380305
157,ust-kulom,61.6864,23.74,53.6902,63,85,2.69,RU,1629380646
158,namibe,-15.1961,20.35,12.1522,77,90,7.2,AO,1629380291
159,palompon,11.0508,27.43,124.3843,78,76,1.16,PH,1629380647
160,upernavik,72.7868,4.08,-56.1549,85,100,5.75,GL,1629380256
161,hami,42.8,29.22,93.45,20,0,3.21,CN,1629380647
162,khatanga,71.9667,7.99,102.5,89,100,5.57,RU,1629380270
163,hohhot,40.8106,17.16,111.6522,88,40,3.0,CN,1629380648
164,svetlogorsk,52.6333,23.63,29.7333,35,17,3.96,BY,1629380274
165,avarua,-21.2078,22.03,-159.775,88,75,8.23,CK,1629380262
166,opunake,-39.4556,9.63,173.8583,78,16,7.23,NZ,1629380649
167,polessk,54.862,17.03,21.1028,65,16,8.34,RU,1629380649
168,port elizabeth,-33.918,16.16,25.5701,55,40,5.14,ZA,1629380180
169,houma,29.5958,30.0,-90.7195,91,1,0.0,US,1629380650
170,namatanai,-3.6667,27.56,152.4333,76,100,3.13,PG,1629380298
171,masallatah,32.6167,30.19,14.0,50,4,5.96,LY,1629380650
172,birin,26.8865,17.89,88.0718,97,100,1.26,NP,1629380650
173,ovalle,-30.5983,16.27,-71.2003,72,100,0.83,CL,1629380651
174,rosario,-32.9468,15.88,-60.6393,94,90,11.83,AR,1629380567
175,pafos,34.7667,34.02,32.4167,66,20,4.63,CY,1629380534
176,magalia,39.8121,17.31,-121.5783,40,0,3.89,US,1629380652
177,dingle,10.9995,25.36,122.6711,88,45,1.1,PH,1629380265
178,tommot,58.9564,15.61,126.2925,98,100,1.53,RU,1629380454
179,borujerd,33.8973,34.3,48.7516,13,23,7.88,IR,1629380652
180,zheleznodorozhnyy,55.7503,24.75,38.0042,45,53,2.17,RU,1629380653
181,pavlogradka,54.2024,20.91,73.5592,51,99,1.95,RU,1629380653
182,plonsk,52.6235,20.56,20.3755,54,87,7.01,PL,1629380455
183,ambilobe,-13.2,28.83,49.05,49,50,4.78,MG,1629380299
184,hithadhoo,-0.6,28.19,73.0833,71,14,3.7,MV,1629380131
185,lompoc,34.6391,20.05,-120.4579,79,90,0.0,US,1629380268
186,honningsvag,70.9821,8.86,25.9704,93,75,8.23,NO,1629380654
187,lata,40.1629,32.8,-8.3327,27,0,5.23,PT,1629380250
188,amahai,-3.3333,25.27,128.9167,88,82,1.34,ID,1629380654
189,saint george,37.1041,19.24,-113.5841,71,20,0.45,US,1629379977
190,xai-xai,-25.0519,23.1,33.6442,60,0,5.57,MZ,1629380655
191,saint anthony,45.0205,24.98,-93.218,79,1,0.89,US,1629380326
192,marzuq,14.4,33.23,46.4667,33,57,6.22,YE,1629380401
193,baykit,61.67,12.24,96.37,86,93,2.11,RU,1629380402
194,sola,-13.8833,26.11,167.55,80,20,6.99,VU,1629380493
195,cherskiy,68.75,10.34,161.3,53,46,3.37,RU,1629380252
196,tutoia,-2.7619,31.02,-42.2744,44,26,2.14,BR,1629380481
197,pevek,69.7008,6.35,170.3133,70,58,8.37,RU,1629380343
198,husavik,66.0449,12.95,-17.3389,83,86,2.05,IS,1629380239
199,cravo norte,6.3017,23.4,-70.2041,96,100,0.59,CO,1629380657
200,bethel,41.3712,25.61,-73.414,93,99,4.75,US,1629380254
201,acapulco,16.8634,26.9,-99.8901,89,75,0.0,MX,1629380187
202,nyagan,62.1406,18.6,65.3936,56,92,0.47,RU,1629380657
203,sisimiut,66.9395,7.08,-53.6735,95,100,1.76,GL,1629380658
204,mbalmayo,3.5167,26.18,11.5,77,100,2.42,CM,1629380658
205,cartagena del chaira,1.3349,24.02,-74.8429,87,95,0.42,CO,1629380659
206,te anau,-45.4167,3.05,167.7167,88,27,1.52,NZ,1629380335
207,liwale,-9.7667,30.13,37.9333,29,72,1.96,TZ,1629380659
208,arraial do cabo,-22.9661,23.98,-42.0278,73,20,11.83,BR,1629380316
209,fairbanks,64.8378,8.39,-147.7164,88,90,2.06,US,1629380257
210,comodoro rivadavia,-45.8667,7.92,-67.5,46,0,7.2,AR,1629380528
211,saint-philippe,-21.3585,23.77,55.7679,74,37,5.77,RE,1629380277
212,sioux lookout,50.1001,23.21,-91.917,83,75,2.57,CA,1629380660
213,dhoraji,21.7333,28.9,70.45,61,100,6.16,IN,1629380661
214,dunedin,-45.8742,7.11,170.5036,75,100,11.62,NZ,1629380541
215,salisbury,51.0693,21.99,-1.7957,79,75,2.57,GB,1629380450
216,pacific grove,36.6177,16.44,-121.9166,91,81,2.68,US,1629380276
217,kurilsk,45.2333,13.02,147.8833,96,100,6.59,RU,1629380661
218,puerto ayora,-0.7393,21.97,-90.3518,86,99,2.24,EC,1629380240
219,rocha,-34.4833,22.74,-54.3333,73,100,5.79,UY,1629380298
220,weyburn,49.6668,13.43,-103.8511,82,96,2.57,CA,1629380662
221,changji,44.0167,26.44,87.3167,36,0,3.0,CN,1629380662
222,urengoy,65.9667,7.32,78.3667,81,100,6.72,RU,1629380663
223,mount darwin,-16.7725,29.86,31.5838,17,0,1.78,ZW,1629380663
224,tuatapere,-46.1333,6.57,167.6833,85,51,4.88,NZ,1629380286
225,ust-nera,64.5667,10.77,143.2,87,100,2.35,RU,1629380283
226,haimen,23.1935,28.94,116.6142,84,100,2.11,CN,1629380664
227,abu samrah,35.3029,35.15,37.1841,22,0,7.64,SY,1629380664
228,axim,4.8699,27.16,-2.2405,70,100,5.46,GH,1629380526
229,matagami,49.7502,22.06,-77.6328,83,75,2.57,CA,1629380665
230,pisco,-13.7,17.23,-76.2167,77,45,4.63,PE,1629380341
231,myitkyina,25.3833,22.59,97.4,100,100,0.28,MM,1629380523
232,nabire,-3.3667,24.87,135.4833,90,100,1.07,ID,1629380665
233,balabac,7.9868,27.49,117.0645,78,3,2.06,PH,1629380666
234,jackson,42.4165,15.02,-122.8345,72,40,0.0,US,1629380354
235,guerrero negro,27.9769,22.05,-114.0611,78,8,1.92,MX,1629380341
236,tam ky,15.5667,29.99,108.4833,84,100,3.51,VN,1629380667
237,haines junction,60.7522,8.97,-137.5108,87,100,0.0,CA,1629380391
238,diego de almagro,-26.3667,19.68,-70.05,20,100,0.67,CL,1629380667
239,nuuk,64.1835,8.34,-51.7216,93,90,2.06,GL,1629380490
240,shakawe,-18.3667,33.79,21.85,9,0,1.15,BW,1629380667
241,codajas,-3.8367,32.81,-62.0569,46,98,0.92,BR,1629380668
242,kindu,-2.95,32.26,25.95,40,85,2.2,CD,1629380668
243,smoky lake,54.1169,13.05,-112.4686,93,100,0.51,CA,1629380669
244,tucuman,-26.8241,21.0,-65.2226,40,0,2.06,AR,1629380669
245,derzhavinsk,51.1,27.77,66.3167,37,45,2.67,KZ,1629380332
246,tulle,45.3333,25.46,1.8333,39,14,1.86,FR,1629380670
247,camrose,53.0168,12.99,-112.8353,57,100,1.38,CA,1629380643
248,katobu,-4.9408,23.44,122.5276,93,95,1.84,ID,1629380670
249,kudahuvadhoo,2.6708,27.97,72.8944,73,100,4.21,MV,1629380521
250,cayenne,4.9333,31.16,-52.3333,72,20,1.79,GF,1629380392
251,rio gallegos,-51.6226,0.03,-69.2181,86,40,3.6,AR,1629380671
252,haverfordwest,51.8017,20.31,-4.9691,85,100,2.68,GB,1629380671
253,taft,31.7471,34.97,54.2088,9,20,3.09,IR,1629380672
254,paamiut,61.994,6.68,-49.6678,98,100,3.48,GL,1629380259
255,kahului,20.8947,23.32,-156.47,81,75,1.54,US,1629380326
256,mnogovershinnyy,53.9353,18.13,139.9242,71,57,2.15,RU,1629380508
257,peruibe,-24.32,26.17,-46.9983,56,0,2.06,BR,1629380586
258,phan thiet,10.9333,26.43,108.1,86,70,0.32,VN,1629380673
259,katsuura,35.1333,27.06,140.3,87,10,7.69,JP,1629380313
260,havelock,34.8791,28.97,-76.9013,82,90,0.89,US,1629380673
261,montepuez,-13.1256,28.29,38.9997,28,100,1.94,MZ,1629380674
262,kirakira,-10.4544,26.12,161.9205,87,20,4.55,SB,1629380674
263,fortuna,40.5982,10.51,-124.1573,93,90,3.09,US,1629380291
264,ust-barguzin,53.45,12.17,108.9833,85,9,1.02,RU,1629380675
265,haverstraw,41.1976,27.07,-73.9646,81,91,0.45,US,1629380616
266,taseyevo,57.2169,14.22,94.8978,95,96,1.55,RU,1629380675
267,nouadhibou,20.931,28.99,-17.0347,65,86,2.57,MR,1629380458
268,sibolga,1.7427,24.16,98.7792,90,99,1.28,ID,1629380512
269,souillac,-20.5167,24.21,57.5167,53,20,5.14,MU,1629380238
270,nyrob,60.733,25.97,56.7202,65,5,1.68,RU,1629380676
271,lakki marwat,32.6079,38.47,70.9114,18,56,3.71,PK,1629380677
272,damara,4.9608,29.68,18.7035,65,100,1.45,CF,1629380677
273,mehamn,71.0357,10.95,27.8492,98,100,6.48,NO,1629380419
274,arman,59.7,12.02,150.1667,97,97,1.81,RU,1629380678
275,sarangani,5.4033,29.25,125.4636,67,95,3.42,PH,1629380447
276,rabo de peixe,37.8,24.73,-25.5833,78,40,5.14,PT,1629380678
277,ambatondrazaka,-17.8333,18.77,48.4167,86,100,1.86,MG,1629380679
278,mezen,65.8522,19.78,44.24,86,99,3.74,RU,1629380290
279,zhigalovo,54.8097,11.49,105.1578,78,13,1.23,RU,1629380679
280,ponta delgada,37.7333,25.4,-25.6667,78,40,5.14,PT,1629380680
281,mayo,38.8876,29.03,-76.5119,76,1,2.68,US,1629380266
282,banda aceh,5.5577,25.94,95.3222,78,100,3.62,ID,1629380468
283,orsk,51.2049,36.5,58.5668,12,0,4.0,RU,1629380680
284,kapuskasing,49.4169,21.05,-82.4331,88,75,2.06,CA,1629380681
285,varzea da palma,-17.5981,27.06,-44.7308,38,19,4.59,BR,1629380382
286,rio grande,-32.035,27.19,-52.0986,53,18,8.01,BR,1629380393
287,andrews,32.3187,23.69,-102.5457,100,1,3.09,US,1629380445
288,tucurui,-3.7661,33.83,-49.6725,32,0,1.82,BR,1629380681
289,severobaykalsk,55.65,11.38,109.3167,84,96,1.71,RU,1629380682
290,beira,-19.8436,27.05,34.8389,74,0,6.17,MZ,1629380682
291,swift current,50.2834,10.45,-107.8014,93,90,1.54,CA,1629380683
292,nueve de julio,-35.4444,12.7,-60.8831,75,100,9.09,AR,1629380683
293,fare,-16.7,24.48,-151.0167,73,100,11.04,PF,1629380684
294,inirida,3.8653,22.14,-67.9239,100,100,1.03,CO,1629380684
295,henties bay,-22.116,16.59,14.2845,75,0,7.22,NA,1629380460
296,santiago,-33.4569,9.69,-70.6483,100,75,1.03,CL,1629380339
297,adrar,20.5022,38.84,-10.0711,23,8,9.49,MR,1629380308
298,ancud,-41.8697,6.35,-73.8203,86,100,6.2,CL,1629380339
299,byron bay,-28.65,13.26,153.6167,80,6,1.75,AU,1629380685
300,vanderhoof,54.0166,10.69,-124.0198,89,80,2.28,CA,1629380390
301,bathsheba,13.2167,29.34,-59.5167,79,20,7.2,BB,1629380324
302,leshukonskoye,64.8989,19.6,45.7622,94,100,2.03,RU,1629380686
303,micheweni,-4.9667,26.34,39.8333,70,41,5.02,TZ,1629380486
304,sakete,6.7362,28.52,2.6587,80,100,2.33,BJ,1629380686
305,najran,17.4924,39.36,44.1277,10,28,5.61,SA,1629380687
306,qaqortoq,60.7167,11.28,-46.0333,96,100,1.98,GL,1629380478
307,bodden town,19.2833,29.44,-81.25,82,0,4.02,KY,1629380687
308,lasa,46.6166,25.57,10.7002,59,54,1.76,IT,1629380687
309,antofagasta,-23.65,14.6,-70.4,73,1,1.73,CL,1629380334
310,vicuna,-30.0319,9.85,-70.7081,46,100,1.48,CL,1629380576
311,port blair,11.6667,27.45,92.75,81,62,4.05,IN,1629380688
312,itacoatiara,-3.1431,32.88,-58.4442,46,96,2.11,BR,1629380688
313,port-gentil,-0.7193,25.98,8.7815,83,90,4.12,GA,1629380249
314,mackay,-21.15,18.99,149.2,88,75,3.6,AU,1629380441
315,itarema,-2.9248,31.41,-39.9167,42,9,6.41,BR,1629380429
316,chingola,-12.529,28.77,27.8838,16,0,1.65,ZM,1629380689
317,antsohihy,-14.8796,28.25,47.9875,52,91,0.44,MG,1629380689
318,requena,39.4883,27.51,-1.1004,35,0,4.16,ES,1629380690
319,san andres,12.5847,28.01,-81.7006,83,75,4.12,CO,1629380602
320,kenai,60.5544,8.41,-151.2583,100,20,0.0,US,1629380391
321,hope,33.6671,24.03,-93.5916,75,84,2.46,US,1629380628
322,begowal,31.6167,33.99,75.5167,58,11,2.51,IN,1629380690
323,dawson creek,55.7666,10.98,-120.2362,87,20,1.03,CA,1629380425
324,orlik,52.5178,10.33,99.825,73,50,0.85,RU,1629380691
325,judaberg,59.1659,17.27,5.8732,71,23,9.92,NO,1629380691
326,valparaiso,-33.0393,13.51,-71.6273,100,90,3.09,CL,1629380319
327,cap-aux-meules,47.3821,22.03,-61.8597,88,75,5.14,CA,1629380393
328,flinders,-34.5833,13.78,150.8552,81,100,0.89,AU,1629380475
329,zlate moravce,48.3855,24.42,18.4006,59,100,2.08,SK,1629380692
330,ystad,55.4297,21.64,13.8204,60,97,7.71,SE,1629380692
331,strezhevoy,60.7333,14.99,77.5889,63,95,3.19,RU,1629380693
332,siverek,37.755,34.34,39.3167,14,1,4.59,TR,1629380693
333,nieuwpoort,51.1244,20.57,2.7735,61,75,5.14,BE,1629380693
334,andenes,69.3143,13.04,16.1194,82,40,8.23,NO,1629380694
335,lavrentiya,65.5833,5.72,-171.0,86,100,4.26,RU,1629380279
336,dalbandin,28.8947,37.55,64.4101,7,35,6.81,PK,1629380676
337,sitka,57.0531,12.94,-135.33,88,90,2.06,US,1629379990
338,okha,53.5739,18.21,142.9478,84,100,2.64,RU,1629380695
339,galesburg,40.9478,25.57,-90.3712,86,1,0.0,US,1629380695
340,elko,41.0002,8.69,-115.5012,61,57,0.97,US,1629380600
341,hambantota,6.1241,31.19,81.1185,58,20,4.12,LK,1629380695
342,ailigandi,9.2333,27.06,-78.0167,83,100,1.31,PA,1629380696
343,nhulunbuy,-12.2333,24.34,136.7667,78,40,4.12,AU,1629380696
344,kuching,1.55,24.12,110.3333,94,40,0.0,MY,1629380696
345,cap malheureux,-19.9842,24.27,57.6142,57,1,3.13,MU,1629380537
346,kieta,-6.2167,26.16,155.6333,83,74,1.65,PG,1629380697
347,kerur,16.0167,24.62,75.5667,73,96,6.6,IN,1629380697
348,juneau,58.3019,12.34,-134.4197,98,90,0.0,US,1629380645
349,geraldton,-28.7667,14.23,114.6,88,40,4.12,AU,1629380495
350,nome,64.5011,7.31,-165.4064,93,90,5.66,US,1629380406
351,sulangan,11.1373,29.52,123.7228,68,99,1.71,PH,1629380700
352,afua,-0.1567,31.64,-50.3867,54,0,1.8,BR,1629380700
353,pucallpa,-8.3791,26.02,-74.5539,89,40,1.54,PE,1629380700
354,zemio,5.0314,27.36,25.1361,62,97,2.87,CF,1629380701
355,yeppoon,-23.1333,18.88,150.7333,83,98,5.46,AU,1629380701
356,naze,28.3667,25.41,129.4833,88,87,4.12,JP,1629380448
357,russellville,35.2784,24.48,-93.1338,96,90,0.0,US,1629380702
358,faanui,-16.4833,24.82,-151.75,73,100,11.02,PF,1629380399
359,meadow lake,34.8014,19.95,-106.5436,56,0,0.99,US,1629380702
360,vila velha,-20.3297,25.97,-40.2925,61,75,3.6,BR,1629380382
361,saint-francois,46.4154,21.69,3.9054,56,90,2.06,FR,1629380703
362,canas,10.4294,24.92,-85.0931,83,72,0.75,CR,1629380704
363,aneho,6.2333,29.11,1.6,73,100,1.87,TG,1629380711
364,mao,39.8885,27.31,4.2658,57,20,2.57,ES,1629380711
365,port hardy,50.6996,14.1,-127.4199,100,90,2.06,CA,1629380467
366,altay,47.8667,17.07,88.1167,67,0,1.67,CN,1629380712
367,alassio,44.0039,29.12,8.1671,60,20,3.09,IT,1629380712
368,moussoro,13.6408,27.35,16.4901,60,100,5.88,TD,1629380314
369,bonavista,48.6499,26.0,-53.1147,70,36,5.89,CA,1629380358
370,moron,-34.6534,13.3,-58.6198,99,90,3.13,AR,1629380621
371,san quintin,30.4833,21.65,-115.95,75,89,1.82,MX,1629380265
372,westport,41.1415,26.9,-73.3579,94,90,0.89,US,1629380540
373,cabinda,-5.55,27.08,12.2,65,20,3.09,AO,1629380714
374,susanville,40.4163,8.38,-120.653,61,1,2.57,US,1629380547
375,berlevag,70.8578,10.97,29.0864,87,75,3.6,NO,1629380497
376,brae,60.3964,12.95,-1.353,70,93,6.03,GB,1629380715
377,krasnyy chikoy,50.3643,11.19,108.7512,87,9,1.96,RU,1629380436
378,shache,38.4167,28.63,77.2406,11,0,2.68,CN,1629380715
379,grindavik,63.8424,13.97,-22.4338,88,90,5.14,IS,1629380425
380,ponta do sol,32.6667,29.28,-17.1,66,0,1.27,PT,1629380256
381,biloela,-24.4167,15.28,150.5,78,72,2.45,AU,1629380716
382,kenora,49.8167,23.66,-94.4337,78,75,4.63,CA,1629380716
383,luanda,-8.8368,24.0,13.2343,83,75,3.09,AO,1629380683
384,chegutu,-18.1302,28.88,30.1407,14,0,0.62,ZW,1629380717
385,abnub,27.2696,37.83,31.1511,12,0,8.23,EG,1629380489
386,srednekolymsk,67.45,11.43,153.6833,67,76,0.91,RU,1629380246
387,naantali,60.4674,15.23,22.0243,88,90,7.72,FI,1629380717
388,ereymentau,51.6199,21.09,73.1033,40,51,3.31,KZ,1629380718
389,sudogda,55.9539,28.56,40.8629,46,94,2.44,RU,1629380718
390,chicama,-7.8447,15.3,-79.1469,77,53,2.94,PE,1629380349
391,pasni,25.2631,26.42,63.471,82,0,10.56,PK,1629380663
392,magnolia,33.2671,23.59,-93.2393,94,99,2.69,US,1629380719
393,leningradskiy,69.3833,5.13,178.4167,67,85,2.42,RU,1629380273
394,morondava,-20.2833,24.95,44.2833,62,0,4.85,MG,1629380427
395,christchurch,-43.5333,10.11,172.6333,59,7,2.57,NZ,1629380438
396,piacabucu,-10.4056,24.04,-36.4344,84,97,7.01,BR,1629380720
397,stykkisholmur,65.0757,13.71,-22.7297,78,100,0.4,IS,1629380720
398,plettenberg bay,-34.0527,12.85,23.3716,65,100,1.2,ZA,1629380505
399,dalvik,65.9702,12.96,-18.5286,85,97,2.76,IS,1629380721
400,marawi,7.9986,19.8,124.2928,93,24,0.9,PH,1629380349
401,bull savanna,17.8868,26.04,-77.5902,72,100,1.57,JM,1629380721
402,egvekinot,66.3167,3.03,-179.1667,84,49,0.38,RU,1629380722
403,cabedelo,-6.9811,25.37,-34.8339,74,63,7.72,BR,1629380722
404,maryville,35.7565,24.53,-83.9705,98,90,2.57,US,1629380723
405,manoel urbano,-8.8389,32.88,-69.2597,35,0,0.51,BR,1629380452
406,mogadishu,2.0371,25.66,45.3438,83,54,10.15,SO,1629380593
407,kidal,18.4411,38.68,1.4078,23,23,3.61,ML,1629380723
408,lodwar,3.1191,34.77,35.5973,25,1,2.89,KE,1629380724
409,waipawa,-41.4122,11.13,175.5153,78,1,5.19,NZ,1629380322
410,amot,59.5714,20.28,7.9877,38,39,4.34,NO,1629380724
411,san carlos de bariloche,-41.1456,1.86,-71.3082,93,75,2.06,AR,1629380725
412,healesville,-37.65,11.74,145.5167,79,30,1.79,AU,1629380725
413,bosaso,11.2842,33.2,49.1816,49,54,3.15,SO,1629380726
414,lahaina,20.8783,24.86,-156.6825,77,9,2.77,US,1629380726
415,castelfidardo,43.4632,28.13,13.5452,33,0,5.07,IT,1629380726
416,gat,31.61,32.44,34.7642,40,0,5.57,IL,1629380482
417,belmonte,-15.8631,25.28,-38.8828,67,86,5.01,BR,1629380727
418,aklavik,68.2191,6.0,-135.0107,100,90,1.03,CA,1629380521
419,solenzo,12.1833,29.08,-4.0833,57,86,3.03,BF,1629380728
420,southampton,50.904,22.11,-1.4043,81,75,0.45,GB,1629380728
421,skowhegan,44.7651,25.21,-69.7192,100,100,0.56,US,1629380728
422,hit,33.6416,40.96,42.8251,11,0,3.86,IQ,1629380729
423,madimba,-10.4,31.62,40.3333,37,20,8.23,TZ,1629380729
424,bengkulu,-3.8004,24.54,102.2655,88,93,1.17,ID,1629380729
425,yarega,63.4354,25.6,53.5765,50,74,3.5,RU,1629380730
426,artyom,40.4723,32.08,50.333,48,7,3.21,AZ,1629380730
427,vestmannaeyjar,63.4427,11.55,-20.2734,87,90,5.66,IS,1629380248
428,margate,51.3813,21.77,1.3862,58,92,2.01,GB,1629380452
429,marsa matruh,31.3525,30.11,27.2453,70,40,6.17,EG,1629380731
430,ostersund,63.1792,11.25,14.6357,82,75,13.89,SE,1629380535
431,kralendijk,12.15,29.99,-68.2667,70,20,6.17,BQ,1629380731
432,bereda,43.2686,21.6,-7.5406,42,23,2.67,ES,1629380732
433,itoman,26.1247,27.21,127.6694,92,40,3.6,JP,1629380732
434,aksu,41.1231,29.01,80.2644,18,10,2.68,CN,1629380351
435,chiredzi,-21.05,34.86,31.6667,11,0,2.79,ZW,1629380732
436,broome,42.2506,23.03,-75.833,89,90,0.45,US,1629380509
437,ayagoz,47.9714,22.22,80.4392,37,15,5.06,KZ,1629380733
438,maunabo,18.0072,30.39,-65.8993,91,97,6.47,PR,1629380733
439,durgapur,23.4833,28.03,87.3167,81,96,5.32,IN,1629380479
440,lima,-12.0432,16.06,-77.0282,90,90,4.12,PE,1629380707
441,bandarbeyla,9.4942,27.41,50.8122,63,13,13.41,SO,1629380734
442,altus,34.6381,24.73,-99.334,94,90,3.09,US,1629380734
443,mount gambier,-37.8333,13.95,140.7667,54,90,5.66,AU,1629380238
444,kiama,-34.6833,13.89,150.8667,81,100,2.44,AU,1629380503
445,tabuk,17.4189,24.65,121.4443,91,100,2.01,PH,1629380735
446,halmstad,56.6745,18.5,12.8568,65,40,7.72,SE,1629380735
447,east millcreek,40.7,14.49,-111.8105,91,90,3.09,US,1629380637
448,krasnoselkup,65.7,7.76,82.4667,76,96,4.98,RU,1629380736
449,suksun,57.1431,29.1,57.3949,40,54,2.32,RU,1629380736
450,vanimo,-2.6741,25.95,141.3028,86,62,2.47,PG,1629380540
451,ulaanbaatar,47.9077,11.07,106.8832,66,20,1.0,MN,1629380737
452,muros,42.7762,24.91,-9.0603,56,85,6.22,ES,1629380300
453,sept-iles,50.2001,25.7,-66.3821,66,90,0.89,CA,1629380737
454,denpasar,-8.65,26.81,115.2167,89,40,4.12,ID,1629380508
455,havre-saint-pierre,50.2334,19.2,-63.5986,82,1,3.6,CA,1629380521
456,svetlaya,46.5389,18.75,138.3297,78,0,2.15,RU,1629380739
457,chiscas,6.5524,17.03,-72.4998,81,98,1.32,CO,1629380739
458,newport,51.5877,22.94,-2.9984,80,57,6.73,GB,1629380127
459,olinda,-8.0089,24.85,-34.8553,78,75,7.72,BR,1629380439
460,poronaysk,49.2167,14.41,143.1167,96,13,0.98,RU,1629380740
461,tigil,57.8,12.57,158.6667,97,100,4.08,RU,1629380740
462,fort nelson,58.8053,8.77,-122.7002,93,75,1.03,CA,1629380379
463,sihora,23.4833,25.63,80.1167,91,100,2.8,IN,1629380740
464,bom jesus,-9.0744,31.56,-44.3586,24,65,4.65,BR,1629380741
465,riyadh,24.6877,40.08,46.7219,8,0,1.1,SA,1629380650
466,farmington,36.7281,17.1,-108.2187,86,75,3.6,US,1629380742
467,ranong,9.9658,26.96,98.6348,83,100,2.66,TH,1629380742
468,sao felix do xingu,-6.6447,33.71,-51.995,20,5,2.8,BR,1629380527
469,temerloh,3.4483,24.23,102.4176,88,100,0.46,MY,1629380742
470,iskateley,67.6803,17.63,53.1512,96,100,3.33,RU,1629380532
471,pringsewu,-5.3582,23.92,104.9744,89,100,3.18,ID,1629380743
472,mokhotlong,-29.2894,9.86,29.0675,30,0,8.14,LS,1629380743
473,buala,-8.145,26.68,159.5921,82,8,2.38,SB,1629380744
474,ostrovnoy,68.0531,18.51,39.5131,62,83,7.12,RU,1629380262
475,roald,62.5833,14.51,6.1333,76,75,5.14,NO,1629380252
476,kontagora,10.3999,24.06,5.4695,89,100,1.72,NG,1629380744
477,tezu,27.9167,24.2,96.1667,100,100,0.63,IN,1629380745
478,turtas,58.9417,18.38,69.1325,80,96,2.1,RU,1629380745
479,piranhas,-16.4269,32.04,-51.8222,18,0,5.11,BR,1629380746
480,iquique,-20.2208,16.02,-70.1431,69,1,1.25,CL,1629380746
481,lagoa,39.05,22.6,-27.9833,86,100,5.76,PT,1629380545
482,lebedinyy,58.5167,13.89,125.5167,92,100,2.77,RU,1629380746
483,lulea,65.5842,16.04,22.1547,82,40,4.63,SE,1629380747
484,saint-andre-avellin,45.7168,22.16,-75.066,90,100,1.95,CA,1629380747
485,salalah,17.0151,26.05,54.0924,89,90,5.14,OM,1629380514
486,concepcion del oro,24.6333,18.33,-101.4167,64,4,2.2,MX,1629380748
487,quelimane,-17.8786,31.97,36.8883,43,20,6.17,MZ,1629380748
488,imeni poliny osipenko,52.4201,18.25,136.4853,83,10,2.72,RU,1629380749
489,tebingtinggi,3.3285,25.03,99.1625,94,100,1.59,ID,1629380749
490,oktyabrskiy,54.4815,35.87,53.471,16,9,2.25,RU,1629380535
491,esperance,-33.8667,12.91,121.9,87,100,5.11,AU,1629380327
492,bushehr,28.9684,37.05,50.8385,41,0,6.17,IR,1629380750
493,ginda,30.6945,19.7,78.4932,97,100,0.05,IN,1629380537
494,tsnori,41.6209,33.58,45.9694,17,4,5.78,GE,1629380751
495,rundu,-17.9333,32.55,19.7667,7,0,1.8,NA,1629380751
496,jumla,29.2747,17.77,82.1838,99,100,0.65,NP,1629380752
497,anloga,5.7947,29.12,0.8973,74,100,1.44,GH,1629380446
498,alofi,-19.0595,18.94,-169.9187,100,18,0.51,NU,1629380316
499,calderitas,18.55,24.16,-88.25,89,100,4.83,MX,1629380752
500,pangai,-19.8,24.65,-174.35,83,0,4.0,TO,1629380753
501,winston-salem,36.0999,28.84,-80.2442,75,1,0.0,US,1629380527
502,nagahama,35.3833,23.71,136.2667,100,100,2.22,JP,1629380753
503,irricana,51.3237,13.58,-113.6048,83,100,2.82,CA,1629380754
504,klaksvik,62.2266,10.51,-6.589,76,100,4.95,FO,1629380312
505,ranot,7.7777,26.2,100.3213,82,100,4.65,TH,1629380754
506,aguimes,27.9054,29.35,-15.4461,40,0,10.8,ES,1629380755
507,akdepe,42.0551,36.05,59.3788,13,0,6.02,TM,1629380755
508,sao filipe,14.8961,25.45,-24.4956,86,80,2.19,CV,1629380755
509,gorin,51.1983,18.33,136.6669,83,23,1.98,RU,1629380756
510,camopi,3.1655,29.76,-52.3158,62,34,1.8,GF,1629380756
511,broken hill,-31.95,11.84,141.4333,37,14,2.57,AU,1629380298
512,douglas,41.3,24.22,-96.167,93,90,0.89,US,1629380592
513,karatau,43.1667,28.82,70.4667,22,0,8.41,KZ,1629380757
514,klichka,50.4457,12.32,117.996,95,100,2.33,RU,1629380757
515,chifeng,42.2683,17.93,118.9636,92,100,2.26,CN,1629380758
516,coquimbo,-29.9533,13.85,-71.3436,94,75,1.03,CL,1629380552
517,jardim,-21.4803,32.84,-56.1381,19,0,5.49,BR,1629380758
518,hovd,48.0056,15.34,91.6419,67,95,2.43,MN,1629380355
519,clarence town,-32.5833,14.75,151.7833,80,45,1.18,AU,1629380531
520,nyurba,63.2842,12.55,118.3319,90,100,0.87,RU,1629380485
521,ouahigouya,13.5828,32.46,-2.4216,46,32,3.81,BF,1629380759
522,kathmandu,27.7167,23.12,85.3167,88,75,1.54,NP,1629380475
523,taltal,-25.4,18.15,-70.4833,58,81,0.32,CL,1629380759
524,oussouye,12.485,27.1,-16.5469,88,100,6.16,SN,1629380760
525,necochea,-38.5473,10.58,-58.7368,84,100,7.49,AR,1629380277
526,san lazaro,18.0387,25.84,-88.6622,83,100,2.7,BZ,1629380761
527,richards bay,-28.783,20.4,32.0377,68,40,4.74,ZA,1629380239
528,chengde,40.9725,17.81,117.9361,99,100,0.52,CN,1629380761
529,kaeo,-35.1,7.96,173.7833,94,39,1.66,NZ,1629380761
530,dillon,34.4166,30.11,-79.3712,64,32,1.46,US,1629380357
531,yeniseysk,58.4497,12.66,92.1703,95,37,3.32,RU,1629380762
532,lorengau,-2.0226,27.73,147.2712,70,100,1.62,PG,1629380289
533,maloy,61.9353,15.26,5.1136,80,98,4.24,NO,1629380762
534,kemijarvi,66.7131,13.13,27.4306,92,100,3.31,FI,1629380763
535,sinjai,-5.1241,23.95,120.253,89,100,1.25,ID,1629380763
536,benjamin constant,-4.3831,27.07,-70.0311,83,0,2.06,BR,1629380764
537,mazagao,-0.115,32.03,-51.2894,50,5,1.78,BR,1629380764
538,torbay,47.6666,24.38,-52.7314,72,75,7.72,CA,1629380130
539,mushie,-3.0167,30.44,16.9,46,100,2.81,CD,1629380764
540,taoudenni,22.6783,43.25,-3.9836,15,45,1.41,ML,1629380302
541,oga,46.4631,21.47,10.347,57,58,3.08,IT,1629380765
542,alice springs,-23.7,10.75,133.8833,28,0,0.51,AU,1629380282
543,port lincoln,-34.7333,14.76,135.8667,84,9,8.6,AU,1629380242
544,yelizovo,53.1873,16.08,158.3805,82,75,4.0,RU,1629380765
545,itarantim,-15.6597,27.17,-40.0656,40,81,4.57,BR,1629380766
546,bilma,18.6853,41.74,12.9164,10,72,4.16,NE,1629380766
547,hokitika,-42.7167,9.49,170.9667,86,74,3.8,NZ,1629380767
548,bharatpur,27.2167,32.45,77.4833,57,98,4.75,IN,1629380767
549,luancheng,37.8792,20.09,114.6517,98,100,3.44,CN,1629380767
550,kuragino,53.8975,15.92,92.6725,89,100,1.83,RU,1629380768
551,aguas verdes,-3.4814,20.95,-80.245,82,100,1.54,PE,1629380768
552,shitanjing,39.2342,25.38,106.3439,27,9,3.81,CN,1629380769
553,llanes,43.4198,20.57,-4.7549,75,13,4.3,ES,1629380769
554,saint-augustin,51.226,28.69,-58.6502,46,0,4.85,CA,1629380338
555,maracaju,-21.6144,33.92,-55.1683,18,0,8.27,BR,1629380770
556,dargaville,-35.9333,10.77,173.8833,77,73,3.28,NZ,1629380770
557,horodkivka,49.9068,23.35,28.9847,34,26,4.59,UA,1629380770
558,ihosy,-22.4,26.39,46.1167,25,0,2.35,MG,1629380771
559,kloulklubed,7.0419,25.28,134.2556,68,82,2.17,PW,1629380771
560,hamilton,39.1834,23.53,-84.5333,95,90,0.0,US,1629380104
561,perdoes,-21.0908,26.08,-45.0914,36,0,2.27,BR,1629380772
562,petropavlovsk-kamchatskiy,53.0452,15.33,158.6483,82,75,4.0,RU,1629380772
563,choma,-16.8065,29.0,26.9531,11,0,2.19,ZM,1629380773
564,taitung,22.7583,26.93,121.1444,85,98,1.1,TW,1629380773
565,daru,-9.0763,24.97,143.2092,88,77,7.45,PG,1629380483
566,pathein,16.7833,26.21,94.7333,87,90,2.54,MM,1629380773
567,aquiraz,-3.9014,29.05,-38.3911,48,27,6.61,BR,1629380520
568,hofn,64.2539,12.01,-15.2082,87,75,2.57,IS,1629380336
569,fukue,32.6881,25.71,128.8419,79,3,2.87,JP,1629380774
570,malakal,9.5334,28.81,31.6605,70,80,1.8,SS,1629380774
571,caraballeda,10.6112,30.76,-66.8522,62,37,3.09,VE,1629380775
572,yulara,-25.2406,12.91,130.9889,26,0,0.0,AU,1629380310
573,abatskoye,56.2875,20.9,70.4555,55,95,2.14,RU,1629380775
574,santa maria da vitoria,-13.3947,27.78,-44.1886,38,72,4.53,BR,1629380776
575,marsh harbour,26.5412,28.15,-77.0636,68,68,3.25,BS,1629380130
